{
  "status": "OK",
  "results": [
    {
      "name": "Jardin du Luxembourg",
      "place_id": "ChIJe2jeNttx5kcRi_mJsGHdkQc",
      "vicinity": "Paris",
      "location": {
        "lat": 48.8466144,
        "lng": 2.3363309
      },
      "rating": 4.7,
      "user_ratings_total": 119185,
      "types": ["tourist_attraction", "park", "point_of_interest", "establishment"],
      "business_status": "OPERATIONAL"
    },
    {
      "name": "Square Boucicaut",
      "place_id": "ChIJd4VO89Nx5kcRGf-46escP9E",
      "vicinity": "1 Rue de Babylone, Paris",
      "location": {
        "lat": 48.8514148,
        "lng": 2.3256262
      },
      "rating": 4.2,
      "user_ratings_total": 469,
      "types": ["tourist_attraction", "park", "point_of_interest", "establishment"],
      "business_status": "OPERATIONAL",
      "opening_hours": {
        "open_now": true
      }
    },
    {
      "name": "Square Jean XXIII",
      "place_id": "ChIJH7Gfw-Nx5kcRoV_z8n0b7_w",
      "vicinity": "4 Parvis Notre-Dame - Pl. Jean-Paul II, Paris",
      "location": {
        "lat": 48.8524084,
        "lng": 2.3508717
      },
      "rating": 4.5,
      "user_ratings_total": 15576,
      "types": ["tourist_attraction", "park", "point_of_interest", "establishment"],
      "business_status": "OPERATIONAL",
      "opening_hours": {
        "open_now": true
      }
    },
    {
      "name": "Square Saint-Médard",
      "place_id": "ChIJ0U21Qexx5kcR1MofoY5Z8IY",
      "vicinity": "Paris",
      "location": {
        "lat": 48.8395271,
        "lng": 2.3500023
      },
      "rating": 4.3,
      "user_ratings_total": 607,
      "types": ["tourist_attraction", "park", "point_of_interest", "establishment"],
      "business_status": "OPERATIONAL",
      "opening_hours": {
        "open_now": true
      }
    },
    {
      "name": "square Gaston-Baty",
      "place_id": "ChIJxz13nX5x5kcRZc8gw69LDjM",
      "vicinity": "Rue du Maine, Paris",
      "location": {
        "lat": 48.8407993,
        "lng": 2.3235702
      },
      "rating": 4.1,
      "user_ratings_total": 71,
      "types": ["park", "point_of_interest", "establishment"],
      "business_status": "OPERATIONAL",
      "opening_hours": {
        "open_now": true
      }
    },
    {
      "name": "Square Federico García Lorca",
      "place_id": "ChIJebOQTPxx5kcRAOHtVLPWhYY",
      "vicinity": "Voie Georges Pompidou, Paris",
      "location": {
        "lat": 48.8547131,
        "lng": 2.3531488
      },
      "rating": 4.4,
      "user_ratings_total": 113,
      "types": ["tourist_attraction", "park", "point_of_interest", "establishment"],
      "business_status": "OPERATIONAL",
      "opening_hours": {
        "open_now": true
      }
    },
    {
      "name": "Missions-Étrangères Square",
      "place_id": "ChIJdVAHjNRx5kcR9DQKxRvucms",
      "vicinity": "105 Rue du Bac, Paris",
      "location": {
        "lat": 48.852463,
        "lng": 2.3244389
      },
      "rating": 4.3,
      "user_ratings_total": 105,
      "types": ["park", "point_of_interest", "establishment"],
      "business_status": "OPERATIONAL",
      "opening_hours": {
        "open_now": true
      }
    },
    {
      "name": "Square Paul Langevin",
      "place_id": "ChIJn99rxeVx5kcRLvinCMemNmQ",
      "vicinity": "square Paul-Langevin, 20 Rue Monge, Paris",
      "location": {
        "lat": 48.8479107,
        "lng": 2.3501991
      },
      "rating": 4.3,
      "user_ratings_total": 251,
      "types": ["tourist_attraction", "park", "point_of_interest", "establishment"],
      "business_status": "OPERATIONAL",
      "opening_hours": {
        "open_now": true
      }
    },
    {
      "name": "Square Roger-Stéphane",
      "place_id": "ChIJq6CxotZx5kcRrVOuRq8qg4o",
      "vicinity": "7 Rue Juliette Récamier, Paris",
      "location": {
        "lat": 48.8529365,
        "lng": 2.3279138
      },
      "rating": 4.5,
      "user_ratings_total": 140,
      "types": ["tourist_attraction", "park", "point_of_interest", "establishment"],
      "business_status": "OPERATIONAL",
      "opening_hours": {
        "open_now": true
      }
    },
    {
      "name": "Georges-Lamarque Square",
      "place_id": "ChIJTfGakbdx5kcRejC5cg5NJBU",
      "vicinity": "8 Pl. Denfert-Rochereau, Paris",
      "location": {
        "lat": 48.8347511,
        "lng": 2.3306136
      },
      "rating": 4.0,
      "user_ratings_total": 100,
      "types": ["tourist_attraction", "park", "point_of_interest", "establishment"],
      "business_status": "OPERATIONAL",
      "opening_hours": {
        "open_now": true
      }
    },
    {
      "name": "Square Taras-Chevtchenko",
      "place_id": "ChIJE-Mnrtdx5kcRFJkVa7wLOx8",
      "vicinity": "186 Bd Saint-Germain, Paris",
      "location": {
        "lat": 48.8545675,
        "lng": 2.3307995
      },
      "rating": 4.6,
      "user_ratings_total": 108,
      "types": ["park", "point_of_interest", "establishment"],
      "business_status": "OPERATIONAL",
      "opening_hours": {
        "open_now": true
      }
    },
    {
      "name": "Jardin des Grands-Explorateurs",
      "place_id": "ChIJKal3bsRx5kcRsun7e9MT0E8",
      "vicinity": "27M Av. de l'Observatoire, Paris",
      "location": {
        "lat": 48.8418366,
        "lng": 2.336885
      },
      "rating": 4.6,
      "user_ratings_total": 1154,
      "types": ["tourist_attraction", "park", "point_of_interest", "establishment"],
      "business_status": "OPERATIONAL",
      "opening_hours": {
        "open_now": true
      }
    },
    {
      "name": "Square Ozanam",
      "place_id": "ChIJdZRFkM5x5kcRJoyUlnDzEVY",
      "vicinity": "18 Rue Stanislas, Paris",
      "location": {
        "lat": 48.8432533,
        "lng": 2.3273662
      },
      "rating": 3.9,
      "user_ratings_total": 177,
      "types": ["tourist_attraction", "park", "point_of_interest", "establishment"],
      "business_status": "OPERATIONAL",
      "opening_hours": {
        "open_now": true
      }
    }
  ]
}